{"type":"FeatureCollection","features":[{"type":"Feature","id":1,"geometry":{"type":"Point","coordinates":[14.263372397000069,57.779142051000065]},"properties":{"OBJECTID":1,"Nr":1412,"Hplnamn":"Huskvarna Hästhagsgatan","Turer_per_":581,"xcoordinat":195417.41174099999,"ycoordinat":6406940.4316790001}},{"type":"Feature","id":2,"geometry":{"type":"Point","coordinates":[14.268249268000034,57.771191051000073]},"properties":{"OBJECTID":2,"Nr":1419,"Hplnamn":"Huskvarna Kalvhagsgatan","Turer_per_":595,"xcoordinat":195717.60217500001,"ycoordinat":6406058.2149299998}},{"type":"Feature","id":3,"geometry":{"type":"Point","coordinates":[14.264283418000048,57.771573884000077]},"properties":{"OBJECTID":3,"Nr":1418,"Hplnamn":"Huskvarna Kohagsgatan","Turer_per_":595,"xcoordinat":195481.12405400001,"ycoordinat":6406098.1806910001}},{"type":"Feature","id":4,"geometry":{"type":"Point","coordinates":[14.268596427000034,57.774886093000077]},"properties":{"OBJECTID":4,"Nr":1413,"Hplnamn":"Huskvarna Lahagsgatan","Turer_per_":1737,"xcoordinat":195733.590577,"ycoordinat":6406469.9636089997}},{"type":"Feature","id":5,"geometry":{"type":"Point","coordinates":[14.269413961000055,57.769885116000069]},"properties":{"OBJECTID":5,"Nr":1228,"Hplnamn":"Huskvarna Lövhagen","Turer_per_":595,"xcoordinat":195788.56216500001,"ycoordinat":6405913.5607190002}},{"type":"Feature","id":6,"geometry":{"type":"Point","coordinates":[14.269915089000051,57.763623099000029]},"properties":{"OBJECTID":6,"Nr":1422,"Hplnamn":"Huskvarna Lövhagsgatan","Turer_per_":595,"xcoordinat":195826.31151,"ycoordinat":6405216.5037099998}},{"type":"Feature","id":7,"geometry":{"type":"Point","coordinates":[14.26059093300006,57.777357024000082]},"properties":{"OBJECTID":7,"Nr":1420,"Hplnamn":"Huskvarna Oxhagsskolan","Turer_per_":1142,"xcoordinat":195254.16335700001,"ycoordinat":6406739.7722340003}},{"type":"Feature","id":8,"geometry":{"type":"Point","coordinates":[14.258814077000068,57.771740692000037]},"properties":{"OBJECTID":8,"Nr":1417,"Hplnamn":"Huskvarna Rishagsgatan","Turer_per_":595,"xcoordinat":195155.453576,"ycoordinat":6406113.0984619996}},{"type":"Feature","id":9,"geometry":{"type":"Point","coordinates":[14.271560191000049,57.766830973000083]},"properties":{"OBJECTID":9,"Nr":1229,"Hplnamn":"Huskvarna Stekelvägen","Turer_per_":595,"xcoordinat":195920.15781999999,"ycoordinat":6405574.8761740001}},{"type":"Feature","id":10,"geometry":{"type":"Point","coordinates":[14.25969862200003,57.77542438200004]},"properties":{"OBJECTID":10,"Nr":1415,"Hplnamn":"Huskvarna Öxnegården","Turer_per_":1737,"xcoordinat":195203.48776600001,"ycoordinat":6406523.9389230004}},{"type":"Feature","id":11,"geometry":{"type":"Point","coordinates":[14.264104008000061,57.775388269000075]},"properties":{"OBJECTID":11,"Nr":1414,"Hplnamn":"Huskvarna Öxnehaga centrum","Turer_per_":1751,"xcoordinat":195465.65516200001,"ycoordinat":6406522.8660289999}},{"type":"Feature","id":12,"geometry":{"type":"Point","coordinates":[14.25666525400004,57.773645170000066]},"properties":{"OBJECTID":12,"Nr":1416,"Hplnamn":"Huskvarna Öxnehaga idrottsplats","Turer_per_":595,"xcoordinat":195025.21510599999,"ycoordinat":6406323.7684869999}},{"type":"Feature","id":13,"geometry":{"type":"Point","coordinates":[14.261092639000026,57.781745461000071]},"properties":{"OBJECTID":13,"Nr":1018,"Hplnamn":"Kungsporten","Turer_per_":1184,"xcoordinat":195278.52071099999,"ycoordinat":6407228.8456910001}}]}